[
  {
    "name": "אבו גוש",
    "lat": 31.8053,
    "lng": 35.1094,
    "time": 90
  },
  {
    "name": "אבו סנאן",
    "lat": 32.95,
    "lng": 35.15,
    "time": 60
  },
  {
    "name": "אביבים",
    "lat": 33.1,
    "lng": 35.5167,
    "time": 15
  },
  {
    "name": "אבן יהודה",
    "lat": 32.2667,
    "lng": 34.9,
    "time": 90
  },
  {
    "name": "אבן ספיר",
    "lat": 31.7333,
    "lng": 35.1167,
    "time": 90
  },
  {
    "name": "אום אל-פחם",
    "lat": 32.5174,
    "lng": 35.1522,
    "time": 60
  },
  {
    "name": "אופקים",
    "lat": 31.3131,
    "lng": 34.621,
    "time": 25
  },
  {
    "name": "אור יהודה",
    "lat": 32.0303,
    "lng": 34.8554,
    "time": 90
  },
  {
    "name": "אור עקיבא",
    "lat": 32.5056,
    "lng": 34.9167,
    "time": 90
  },
  {
    "name": "אורה",
    "lat": 31.7833,
    "lng": 35.1333,
    "time": 90
  },
  {
    "name": "אורטל",
    "lat": 33.1667,
    "lng": 35.7833,
    "time": 15
  },
  {
    "name": "אורים",
    "lat": 31.2833,
    "lng": 34.5,
    "time": 25
  },
  {
    "name": "אזור",
    "lat": 32.0167,
    "lng": 34.8167,
    "time": 90
  },
  {
    "name": "אחיטוב",
    "lat": 32.4167,
    "lng": 34.9833,
    "time": 90
  },
  {
    "name": "אילות",
    "lat": 29.5333,
    "lng": 34.95,
    "time": 180
  },
  {
    "name": "אילת",
    "lat": 29.5577,
    "lng": 34.9519,
    "time": 180
  },
  {
    "name": "אל-חמידיה",
    "lat": 32.9,
    "lng": 35.65,
    "time": 30
  },
  {
    "name": "אל-רום",
    "lat": 33.1333,
    "lng": 35.7833,
    "time": 15
  },
  {
    "name": "אלומים",
    "lat": 31.4833,
    "lng": 34.6333,
    "time": 25
  },
  {
    "name": "אלי עד",
    "lat": 32.9667,
    "lng": 35.7833,
    "time": 15
  },
  {
    "name": "אלישיב",
    "lat": 32.3667,
    "lng": 34.9167,
    "time": 90
  },
  {
    "name": "אלמגור",
    "lat": 32.9167,
    "lng": 35.6167,
    "time": 30
  },
  {
    "name": "אלמוג",
    "lat": 31.75,
    "lng": 35.5333,
    "time": 30
  },
  {
    "name": "אלעד",
    "lat": 32.0533,
    "lng": 34.951,
    "time": 90
  },
  {
    "name": "אם אל-פאחם",
    "lat": 32.5174,
    "lng": 35.1522,
    "time": 60
  },
  {
    "name": "אמיר",
    "lat": 33.1333,
    "lng": 35.6,
    "time": 15
  },
  {
    "name": "אניעם",
    "lat": 32.95,
    "lng": 35.7667,
    "time": 30
  },
  {
    "name": "אפרת",
    "lat": 31.6594,
    "lng": 35.1572,
    "time": 90
  },
  {
    "name": "ארגמן",
    "lat": 32.2,
    "lng": 35.5667,
    "time": 30
  },
  {
    "name": "ארז",
    "lat": 31.5167,
    "lng": 34.5333,
    "time": 15
  },
  {
    "name": "אשדוד",
    "lat": 31.804,
    "lng": 34.655,
    "time": 60
  },
  {
    "name": "אשדות יעקב",
    "lat": 32.6667,
    "lng": 35.5833,
    "time": 30
  },
  {
    "name": "אשכול",
    "lat": 31.35,
    "lng": 34.5167,
    "time": 15
  },
  {
    "name": "אשלים",
    "lat": 30.9167,
    "lng": 34.6833,
    "time": 60
  },
  {
    "name": "אשקלון",
    "lat": 31.6688,
    "lng": 34.5743,
    "time": 45
  },
  {
    "name": "אשרת",
    "lat": 32.9667,
    "lng": 35.0667,
    "time": 60
  },
  {
    "name": "באר יעקב",
    "lat": 31.9333,
    "lng": 34.8333,
    "time": 90
  },
  {
    "name": "באר שבע",
    "lat": 31.2521,
    "lng": 34.7913,
    "time": 60
  },
  {
    "name": "בארי",
    "lat": 31.4167,
    "lng": 34.5,
    "time": 15
  },
  {
    "name": "בועינה-נוג'ידאת",
    "lat": 32.8,
    "lng": 35.3667,
    "time": 60
  },
  {
    "name": "בוקעתא",
    "lat": 33.25,
    "lng": 35.7833,
    "time": 15
  },
  {
    "name": "בורגתא",
    "lat": 32.2333,
    "lng": 34.8667,
    "time": 90
  },
  {
    "name": "ביר אל מכסור",
    "lat": 32.8833,
    "lng": 35.15,
    "time": 60
  },
  {
    "name": "בית אלפא",
    "lat": 32.5167,
    "lng": 35.4167,
    "time": 30
  },
  {
    "name": "בית ג'אן",
    "lat": 32.95,
    "lng": 35.3833,
    "time": 30
  },
  {
    "name": "בית הגדי",
    "lat": 31.45,
    "lng": 34.6,
    "time": 15
  },
  {
    "name": "בית זית",
    "lat": 31.8167,
    "lng": 35.1333,
    "time": 90
  },
  {
    "name": "בית זרע",
    "lat": 32.7,
    "lng": 35.5667,
    "time": 30
  },
  {
    "name": "בית חנניה",
    "lat": 32.5333,
    "lng": 34.9,
    "time": 90
  },
  {
    "name": "בית יצחק-שער חפר",
    "lat": 32.3167,
    "lng": 34.9,
    "time": 90
  },
  {
    "name": "בית מאיר",
    "lat": 31.7833,
    "lng": 35.1,
    "time": 90
  },
  {
    "name": "בית קמה",
    "lat": 31.4333,
    "lng": 34.7,
    "time": 25
  },
  {
    "name": "בית שאן",
    "lat": 32.4972,
    "lng": 35.4983,
    "time": 30
  },
  {
    "name": "בית שמש",
    "lat": 31.7526,
    "lng": 34.9897,
    "time": 90
  },
  {
    "name": "ביתר עילית",
    "lat": 31.6931,
    "lng": 35.1122,
    "time": 90
  },
  {
    "name": "בלפוריה",
    "lat": 32.6333,
    "lng": 35.2833,
    "time": 60
  },
  {
    "name": "בני ברק",
    "lat": 32.0833,
    "lng": 34.834,
    "time": 90
  },
  {
    "name": "בני דרום",
    "lat": 31.7833,
    "lng": 34.7333,
    "time": 60
  },
  {
    "name": "בנימינה-גבעת עדה",
    "lat": 32.5167,
    "lng": 34.95,
    "time": 90
  },
  {
    "name": "בסמת טבעון",
    "lat": 32.75,
    "lng": 35.15,
    "time": 60
  },
  {
    "name": "בקעות",
    "lat": 32.35,
    "lng": 35.5,
    "time": 30
  },
  {
    "name": "ברור חיל",
    "lat": 31.5667,
    "lng": 34.5833,
    "time": 15
  },
  {
    "name": "ברוש",
    "lat": 31.15,
    "lng": 34.8333,
    "time": 60
  },
  {
    "name": "ברטעה",
    "lat": 32.5167,
    "lng": 35.1333,
    "time": 60
  },
  {
    "name": "ברקאי",
    "lat": 32.4333,
    "lng": 34.9833,
    "time": 90
  },
  {
    "name": "בת גלים",
    "lat": 32.8333,
    "lng": 34.9667,
    "time": 60
  },
  {
    "name": "בת ים",
    "lat": 32.0167,
    "lng": 34.75,
    "time": 90
  },
  {
    "name": "ג'דיידה-מכר",
    "lat": 32.9333,
    "lng": 35.15,
    "time": 60
  },
  {
    "name": "ג'לג'וליה",
    "lat": 32.15,
    "lng": 34.95,
    "time": 90
  },
  {
    "name": "ג'סר א-זרקא",
    "lat": 32.5333,
    "lng": 34.9,
    "time": 90
  },
  {
    "name": "ג'ש - גוש חלב",
    "lat": 33.0167,
    "lng": 35.4167,
    "time": 30
  },
  {
    "name": "ג'ת",
    "lat": 32.5833,
    "lng": 35.0667,
    "time": 60
  },
  {
    "name": "גבים",
    "lat": 31.4333,
    "lng": 34.5833,
    "time": 15
  },
  {
    "name": "גבעת זאב",
    "lat": 31.8667,
    "lng": 35.1667,
    "time": 90
  },
  {
    "name": "גבעת חיים",
    "lat": 32.4,
    "lng": 34.9667,
    "time": 90
  },
  {
    "name": "גבעתי",
    "lat": 31.5833,
    "lng": 34.6,
    "time": 15
  },
  {
    "name": "גבעתיים",
    "lat": 32.0667,
    "lng": 34.8137,
    "time": 90
  },
  {
    "name": "גבת",
    "lat": 32.65,
    "lng": 35.1667,
    "time": 60
  },
  {
    "name": "גדות",
    "lat": 33.05,
    "lng": 35.6167,
    "time": 15
  },
  {
    "name": "גדרה",
    "lat": 31.8118,
    "lng": 34.7743,
    "time": 90
  },
  {
    "name": "גונן",
    "lat": 33.1,
    "lng": 35.6333,
    "time": 15
  },
  {
    "name": "גוש עציון",
    "lat": 31.65,
    "lng": 35.1167,
    "time": 90
  },
  {
    "name": "גיזה",
    "lat": 32.85,
    "lng": 35.7,
    "time": 30
  },
  {
    "name": "גילת",
    "lat": 31.3333,
    "lng": 34.6333,
    "time": 25
  },
  {
    "name": "גינוסר",
    "lat": 32.85,
    "lng": 35.5167,
    "time": 30
  },
  {
    "name": "גיתית",
    "lat": 32.1,
    "lng": 35.5167,
    "time": 30
  },
  {
    "name": "גלגל",
    "lat": 31.9667,
    "lng": 35.45,
    "time": 30
  },
  {
    "name": "גן השומרון",
    "lat": 32.4333,
    "lng": 35.0333,
    "time": 90
  },
  {
    "name": "גן יבנה",
    "lat": 31.7833,
    "lng": 34.7167,
    "time": 90
  },
  {
    "name": "גן שורק",
    "lat": 31.85,
    "lng": 34.7833,
    "time": 90
  },
  {
    "name": "גן שמואל",
    "lat": 32.4167,
    "lng": 34.95,
    "time": 90
  },
  {
    "name": "גני תקווה",
    "lat": 32.0574,
    "lng": 34.8785,
    "time": 90
  },
  {
    "name": "גניגר",
    "lat": 32.65,
    "lng": 35.25,
    "time": 60
  },
  {
    "name": "גרופית",
    "lat": 29.6833,
    "lng": 34.9833,
    "time": 180
  },
  {
    "name": "גשור",
    "lat": 32.9833,
    "lng": 35.65,
    "time": 30
  },
  {
    "name": "גשר",
    "lat": 32.65,
    "lng": 35.5667,
    "time": 30
  },
  {
    "name": "דבורייה",
    "lat": 32.6833,
    "lng": 35.3833,
    "time": 60
  },
  {
    "name": "דגניה א",
    "lat": 32.7,
    "lng": 35.5667,
    "time": 30
  },
  {
    "name": "דגניה ב",
    "lat": 32.6833,
    "lng": 35.5667,
    "time": 30
  },
  {
    "name": "דורות",
    "lat": 31.5167,
    "lng": 34.55,
    "time": 15
  },
  {
    "name": "דימונה",
    "lat": 31.0681,
    "lng": 35.0317,
    "time": 60
  },
  {
    "name": "דיר אל אסד",
    "lat": 32.9333,
    "lng": 35.2333,
    "time": 60
  },
  {
    "name": "דלית אל-כרמל",
    "lat": 32.7,
    "lng": 35.0333,
    "time": 60
  },
  {
    "name": "דן",
    "lat": 33.25,
    "lng": 35.65,
    "time": 15
  },
  {
    "name": "הוד השרון",
    "lat": 32.1491,
    "lng": 34.8881,
    "time": 90
  },
  {
    "name": "הר אדר",
    "lat": 31.85,
    "lng": 35.1667,
    "time": 90
  },
  {
    "name": "הרצליה",
    "lat": 32.165,
    "lng": 34.844,
    "time": 90
  },
  {
    "name": "זיקים",
    "lat": 31.65,
    "lng": 34.5167,
    "time": 15
  },
  {
    "name": "זכרון יעקב",
    "lat": 32.5697,
    "lng": 34.9497,
    "time": 90
  },
  {
    "name": "חגלה",
    "lat": 32.3667,
    "lng": 34.9,
    "time": 90
  },
  {
    "name": "חדרה",
    "lat": 32.4331,
    "lng": 34.9188,
    "time": 90
  },
  {
    "name": "חולון",
    "lat": 32.0167,
    "lng": 34.779,
    "time": 90
  },
  {
    "name": "חוף אשקלון",
    "lat": 31.6833,
    "lng": 34.55,
    "time": 30
  },
  {
    "name": "חורה",
    "lat": 31.2833,
    "lng": 34.9167,
    "time": 60
  },
  {
    "name": "חורפיש",
    "lat": 33.0,
    "lng": 35.3833,
    "time": 30
  },
  {
    "name": "חורשים",
    "lat": 32.1167,
    "lng": 34.9167,
    "time": 90
  },
  {
    "name": "חיפה",
    "lat": 32.794,
    "lng": 34.9896,
    "time": 60
  },
  {
    "name": "חמאם",
    "lat": 32.85,
    "lng": 35.5,
    "time": 30
  },
  {
    "name": "חמדיה",
    "lat": 32.5333,
    "lng": 35.5167,
    "time": 30
  },
  {
    "name": "חמת גדר",
    "lat": 32.6833,
    "lng": 35.6667,
    "time": 15
  },
  {
    "name": "חניתה",
    "lat": 33.0833,
    "lng": 35.2,
    "time": 15
  },
  {
    "name": "חספין",
    "lat": 32.9333,
    "lng": 35.6667,
    "time": 30
  },
  {
    "name": "חצבה",
    "lat": 30.7833,
    "lng": 35.1833,
    "time": 60
  },
  {
    "name": "חצור הגלילית",
    "lat": 32.9833,
    "lng": 35.5333,
    "time": 30
  },
  {
    "name": "חצרים",
    "lat": 31.2667,
    "lng": 34.8,
    "time": 60
  },
  {
    "name": "חרמון",
    "lat": 32.9667,
    "lng": 35.8,
    "time": 15
  },
  {
    "name": "טבריה",
    "lat": 32.794,
    "lng": 35.53,
    "time": 30
  },
  {
    "name": "טובא-זנגרייה",
    "lat": 32.9167,
    "lng": 35.55,
    "time": 30
  },
  {
    "name": "טורעאן",
    "lat": 32.7833,
    "lng": 35.3333,
    "time": 60
  },
  {
    "name": "טייבה",
    "lat": 32.2667,
    "lng": 34.9833,
    "time": 90
  },
  {
    "name": "טירה",
    "lat": 32.2333,
    "lng": 34.95,
    "time": 90
  },
  {
    "name": "טירת כרמל",
    "lat": 32.7591,
    "lng": 34.9694,
    "time": 60
  },
  {
    "name": "טירת צבי",
    "lat": 32.4333,
    "lng": 35.5333,
    "time": 30
  },
  {
    "name": "טמרה",
    "lat": 32.85,
    "lng": 35.1833,
    "time": 60
  },
  {
    "name": "יבנה",
    "lat": 31.8757,
    "lng": 34.7437,
    "time": 90
  },
  {
    "name": "יד מרדכי",
    "lat": 31.6167,
    "lng": 34.55,
    "time": 15
  },
  {
    "name": "יהוד-מונוסון",
    "lat": 32.0333,
    "lng": 34.8833,
    "time": 90
  },
  {
    "name": "יהל",
    "lat": 29.8667,
    "lng": 35.0167,
    "time": 180
  },
  {
    "name": "יונתן",
    "lat": 33.1333,
    "lng": 35.7667,
    "time": 15
  },
  {
    "name": "יטבתה",
    "lat": 29.8667,
    "lng": 35.0667,
    "time": 180
  },
  {
    "name": "ייטב",
    "lat": 32.0833,
    "lng": 35.5,
    "time": 30
  },
  {
    "name": "יכיני",
    "lat": 31.5333,
    "lng": 34.55,
    "time": 15
  },
  {
    "name": "יסוד המעלה",
    "lat": 33.0333,
    "lng": 35.5833,
    "time": 15
  },
  {
    "name": "יסיף",
    "lat": 32.95,
    "lng": 35.1667,
    "time": 60
  },
  {
    "name": "יפיע",
    "lat": 32.6833,
    "lng": 35.2833,
    "time": 60
  },
  {
    "name": "יקנעם עילית",
    "lat": 32.6667,
    "lng": 35.1,
    "time": 60
  },
  {
    "name": "ירוחם",
    "lat": 30.9878,
    "lng": 34.9306,
    "time": 60
  },
  {
    "name": "ירושלים",
    "lat": 31.7683,
    "lng": 35.2137,
    "time": 90
  },
  {
    "name": "ירכא",
    "lat": 32.95,
    "lng": 35.1833,
    "time": 60
  },
  {
    "name": "כאבול",
    "lat": 32.8667,
    "lng": 35.2167,
    "time": 60
  },
  {
    "name": "כאוכב אבו אל-היג'א",
    "lat": 32.9,
    "lng": 35.2833,
    "time": 60
  },
  {
    "name": "כורזים",
    "lat": 32.9167,
    "lng": 35.5667,
    "time": 30
  },
  {
    "name": "כינרת (מושבה)",
    "lat": 32.7167,
    "lng": 35.5667,
    "time": 30
  },
  {
    "name": "כינרת (קיבוץ)",
    "lat": 32.7,
    "lng": 35.5667,
    "time": 30
  },
  {
    "name": "כיסופים",
    "lat": 31.35,
    "lng": 34.4667,
    "time": 15
  },
  {
    "name": "כמהין",
    "lat": 31.2167,
    "lng": 34.8833,
    "time": 60
  },
  {
    "name": "כנות",
    "lat": 31.75,
    "lng": 34.8,
    "time": 60
  },
  {
    "name": "כנף",
    "lat": 33.0,
    "lng": 35.7333,
    "time": 15
  },
  {
    "name": "כסייפה",
    "lat": 31.2333,
    "lng": 35.05,
    "time": 60
  },
  {
    "name": "כסלון",
    "lat": 31.7833,
    "lng": 35.0667,
    "time": 90
  },
  {
    "name": "כפר אל שיח",
    "lat": 31.45,
    "lng": 34.5,
    "time": 15
  },
  {
    "name": "כפר ביאליק",
    "lat": 32.8167,
    "lng": 35.0833,
    "time": 60
  },
  {
    "name": "כפר בלום",
    "lat": 33.1167,
    "lng": 35.6,
    "time": 15
  },
  {
    "name": "כפר ברא",
    "lat": 32.1833,
    "lng": 34.9833,
    "time": 90
  },
  {
    "name": "כפר גלעדי",
    "lat": 33.2333,
    "lng": 35.5667,
    "time": 15
  },
  {
    "name": "כפר המכבי",
    "lat": 32.7667,
    "lng": 35.0833,
    "time": 60
  },
  {
    "name": "כפר הנשיא",
    "lat": 32.9667,
    "lng": 35.6167,
    "time": 30
  },
  {
    "name": "כפר חיים",
    "lat": 32.3,
    "lng": 34.9167,
    "time": 90
  },
  {
    "name": "כפר יאסיף",
    "lat": 32.9667,
    "lng": 35.1667,
    "time": 60
  },
  {
    "name": "כפר יובל",
    "lat": 33.2,
    "lng": 35.65,
    "time": 15
  },
  {
    "name": "כפר יונה",
    "lat": 32.3167,
    "lng": 34.9333,
    "time": 90
  },
  {
    "name": "כפר כנא",
    "lat": 32.75,
    "lng": 35.35,
    "time": 60
  },
  {
    "name": "כפר מימון",
    "lat": 31.45,
    "lng": 34.5833,
    "time": 15
  },
  {
    "name": "כפר מנדא",
    "lat": 32.8333,
    "lng": 35.2333,
    "time": 60
  },
  {
    "name": "כפר נטר",
    "lat": 32.2667,
    "lng": 34.9167,
    "time": 90
  },
  {
    "name": "כפר סבא",
    "lat": 32.1781,
    "lng": 34.9078,
    "time": 90
  },
  {
    "name": "כפר עזה",
    "lat": 31.4833,
    "lng": 34.5167,
    "time": 15
  },
  {
    "name": "כפר קאסם",
    "lat": 32.1167,
    "lng": 34.9833,
    "time": 90
  },
  {
    "name": "כפר רופין",
    "lat": 32.4833,
    "lng": 35.5833,
    "time": 30
  },
  {
    "name": "כפר תבור",
    "lat": 32.6833,
    "lng": 35.4167,
    "time": 60
  },
  {
    "name": "כרם שלום",
    "lat": 31.2,
    "lng": 34.35,
    "time": 15
  },
  {
    "name": "כרמיאל",
    "lat": 32.9167,
    "lng": 35.3,
    "time": 60
  },
  {
    "name": "כרמים",
    "lat": 31.4167,
    "lng": 34.95,
    "time": 60
  },
  {
    "name": "להב",
    "lat": 31.3667,
    "lng": 34.7167,
    "time": 25
  },
  {
    "name": "להבים",
    "lat": 31.3667,
    "lng": 34.8167,
    "time": 60
  },
  {
    "name": "לוד",
    "lat": 31.9516,
    "lng": 34.8953,
    "time": 90
  },
  {
    "name": "לוטן",
    "lat": 29.9833,
    "lng": 35.0667,
    "time": 180
  },
  {
    "name": "לילך",
    "lat": 33.1167,
    "lng": 35.5167,
    "time": 15
  },
  {
    "name": "לקיה",
    "lat": 31.3667,
    "lng": 34.8,
    "time": 60
  },
  {
    "name": "מבוא חמה",
    "lat": 32.9667,
    "lng": 35.7333,
    "time": 15
  },
  {
    "name": "מבשרת ציון",
    "lat": 31.8167,
    "lng": 35.15,
    "time": 90
  },
  {
    "name": "מג'אר",
    "lat": 32.9,
    "lng": 35.4,
    "time": 60
  },
  {
    "name": "מג'ד אל-כרום",
    "lat": 32.9167,
    "lng": 35.25,
    "time": 60
  },
  {
    "name": "מג'דל שמס",
    "lat": 33.2667,
    "lng": 35.7667,
    "time": 15
  },
  {
    "name": "מגדל",
    "lat": 32.8333,
    "lng": 35.5167,
    "time": 30
  },
  {
    "name": "מגדל העמק",
    "lat": 32.6731,
    "lng": 35.2406,
    "time": 60
  },
  {
    "name": "מגן",
    "lat": 31.3167,
    "lng": 34.4833,
    "time": 15
  },
  {
    "name": "מודיעין עילית",
    "lat": 31.9333,
    "lng": 35.0333,
    "time": 90
  },
  {
    "name": "מודיעין-מכבים-רעות",
    "lat": 31.8969,
    "lng": 35.0095,
    "time": 90
  },
  {
    "name": "מוצא",
    "lat": 31.8,
    "lng": 35.15,
    "time": 90
  },
  {
    "name": "מושב נורדיה",
    "lat": 32.2833,
    "lng": 34.9167,
    "time": 90
  },
  {
    "name": "מזכרת בתיה",
    "lat": 31.85,
    "lng": 34.8333,
    "time": 90
  },
  {
    "name": "מזרעה",
    "lat": 32.9,
    "lng": 35.2167,
    "time": 60
  },
  {
    "name": "מחולה",
    "lat": 32.3833,
    "lng": 35.5167,
    "time": 30
  },
  {
    "name": "מחורה",
    "lat": 32.1833,
    "lng": 35.5333,
    "time": 30
  },
  {
    "name": "מחניים",
    "lat": 33.0167,
    "lng": 35.55,
    "time": 15
  },
  {
    "name": "מטולה",
    "lat": 33.2667,
    "lng": 35.5667,
    "time": 15
  },
  {
    "name": "מיצר",
    "lat": 32.9167,
    "lng": 35.6833,
    "time": 30
  },
  {
    "name": "מיתר",
    "lat": 31.3833,
    "lng": 34.9,
    "time": 60
  },
  {
    "name": "מנרה",
    "lat": 33.2167,
    "lng": 35.55,
    "time": 15
  },
  {
    "name": "מנשיה זבדה",
    "lat": 32.5667,
    "lng": 35.0833,
    "time": 60
  },
  {
    "name": "מסחה",
    "lat": 32.5667,
    "lng": 35.1333,
    "time": 60
  },
  {
    "name": "מסעדה",
    "lat": 33.2333,
    "lng": 35.7667,
    "time": 15
  },
  {
    "name": "מעברות",
    "lat": 32.35,
    "lng": 34.9333,
    "time": 90
  },
  {
    "name": "מעגן",
    "lat": 32.8167,
    "lng": 35.5833,
    "time": 30
  },
  {
    "name": "מעגן מיכאל",
    "lat": 32.55,
    "lng": 34.9167,
    "time": 60
  },
  {
    "name": "מעוז חיים",
    "lat": 32.4667,
    "lng": 35.55,
    "time": 30
  },
  {
    "name": "מעיין צבי",
    "lat": 32.5667,
    "lng": 34.9167,
    "time": 90
  },
  {
    "name": "מעלה אדומים",
    "lat": 31.7775,
    "lng": 35.2983,
    "time": 90
  },
  {
    "name": "מעלה החמישה",
    "lat": 31.8167,
    "lng": 35.1167,
    "time": 90
  },
  {
    "name": "מעלות-תרשיחא",
    "lat": 33.0167,
    "lng": 35.2667,
    "time": 30
  },
  {
    "name": "מצדה",
    "lat": 31.3167,
    "lng": 35.35,
    "time": 30
  },
  {
    "name": "מצוקי דרגות",
    "lat": 31.4833,
    "lng": 35.4167,
    "time": 30
  },
  {
    "name": "מצפה",
    "lat": 32.9,
    "lng": 35.4833,
    "time": 30
  },
  {
    "name": "מצפה רמון",
    "lat": 30.61,
    "lng": 34.8017,
    "time": 60
  },
  {
    "name": "מרום גולן",
    "lat": 33.1167,
    "lng": 35.75,
    "time": 15
  },
  {
    "name": "מרחביה",
    "lat": 32.6,
    "lng": 35.2667,
    "time": 60
  },
  {
    "name": "משמר הנגב",
    "lat": 31.3167,
    "lng": 34.6833,
    "time": 25
  },
  {
    "name": "נאות הכיכר",
    "lat": 30.95,
    "lng": 35.4333,
    "time": 60
  },
  {
    "name": "נבטים",
    "lat": 31.0833,
    "lng": 34.85,
    "time": 60
  },
  {
    "name": "נהלל",
    "lat": 32.6667,
    "lng": 35.2,
    "time": 60
  },
  {
    "name": "נהריה",
    "lat": 33.0046,
    "lng": 35.0977,
    "time": 30
  },
  {
    "name": "נוב",
    "lat": 32.9167,
    "lng": 35.4667,
    "time": 30
  },
  {
    "name": "נווה אטיב",
    "lat": 32.8833,
    "lng": 35.8,
    "time": 15
  },
  {
    "name": "נוף הגליל",
    "lat": 32.7042,
    "lng": 35.3281,
    "time": 60
  },
  {
    "name": "נחל עוז",
    "lat": 31.4833,
    "lng": 34.4833,
    "time": 15
  },
  {
    "name": "נחלה",
    "lat": 31.7333,
    "lng": 34.7833,
    "time": 60
  },
  {
    "name": "נחף",
    "lat": 32.95,
    "lng": 35.35,
    "time": 60
  },
  {
    "name": "נטור",
    "lat": 32.9833,
    "lng": 35.8333,
    "time": 15
  },
  {
    "name": "נין",
    "lat": 32.6333,
    "lng": 35.3,
    "time": 60
  },
  {
    "name": "ניר גלים",
    "lat": 31.7667,
    "lng": 34.6333,
    "time": 45
  },
  {
    "name": "ניר יצחק",
    "lat": 31.2167,
    "lng": 34.35,
    "time": 15
  },
  {
    "name": "ניר עם",
    "lat": 31.5,
    "lng": 34.5167,
    "time": 15
  },
  {
    "name": "ניר עציון",
    "lat": 32.6333,
    "lng": 34.9333,
    "time": 60
  },
  {
    "name": "נירים",
    "lat": 31.3,
    "lng": 34.45,
    "time": 15
  },
  {
    "name": "נמרוד",
    "lat": 33.2333,
    "lng": 35.7,
    "time": 15
  },
  {
    "name": "נס ציונה",
    "lat": 31.9299,
    "lng": 34.7979,
    "time": 90
  },
  {
    "name": "נעמה",
    "lat": 32.0333,
    "lng": 35.4333,
    "time": 30
  },
  {
    "name": "נצרת",
    "lat": 32.6996,
    "lng": 35.3035,
    "time": 60
  },
  {
    "name": "נשר",
    "lat": 32.7667,
    "lng": 35.0333,
    "time": 60
  },
  {
    "name": "נתיב הגדוד",
    "lat": 32.1167,
    "lng": 35.4833,
    "time": 30
  },
  {
    "name": "נתיבות",
    "lat": 31.4202,
    "lng": 34.5898,
    "time": 15
  },
  {
    "name": "נתניה",
    "lat": 32.3215,
    "lng": 34.8532,
    "time": 90
  },
  {
    "name": "סביון",
    "lat": 32.05,
    "lng": 34.8833,
    "time": 90
  },
  {
    "name": "סולם",
    "lat": 32.6333,
    "lng": 35.3167,
    "time": 60
  },
  {
    "name": "סופה",
    "lat": 31.25,
    "lng": 34.3833,
    "time": 15
  },
  {
    "name": "סח'נין",
    "lat": 32.8667,
    "lng": 35.2833,
    "time": 60
  },
  {
    "name": "ספיר",
    "lat": 31.4167,
    "lng": 34.5667,
    "time": 15
  },
  {
    "name": "ספיר (ערבה)",
    "lat": 30.1333,
    "lng": 35.1167,
    "time": 120
  },
  {
    "name": "עבדה",
    "lat": 30.8167,
    "lng": 34.9333,
    "time": 60
  },
  {
    "name": "עובדה",
    "lat": 30.8167,
    "lng": 34.9333,
    "time": 60
  },
  {
    "name": "עומר",
    "lat": 31.2667,
    "lng": 34.85,
    "time": 60
  },
  {
    "name": "עוספיא",
    "lat": 32.7167,
    "lng": 35.05,
    "time": 60
  },
  {
    "name": "עילבון",
    "lat": 32.8,
    "lng": 35.4167,
    "time": 60
  },
  {
    "name": "עין גב",
    "lat": 32.7833,
    "lng": 35.6333,
    "time": 30
  },
  {
    "name": "עין גדי",
    "lat": 31.4333,
    "lng": 35.3833,
    "time": 30
  },
  {
    "name": "עין הבשור",
    "lat": 31.1833,
    "lng": 34.4667,
    "time": 15
  },
  {
    "name": "עין החורש",
    "lat": 32.3667,
    "lng": 34.95,
    "time": 90
  },
  {
    "name": "עין הנצי\"ב",
    "lat": 32.5167,
    "lng": 35.5,
    "time": 30
  },
  {
    "name": "עין השופט",
    "lat": 32.5667,
    "lng": 35.1,
    "time": 60
  },
  {
    "name": "עין ורד",
    "lat": 32.2833,
    "lng": 34.95,
    "time": 90
  },
  {
    "name": "עין חצבה",
    "lat": 30.7833,
    "lng": 35.1833,
    "time": 60
  },
  {
    "name": "עין יהב",
    "lat": 30.5833,
    "lng": 35.0167,
    "time": 120
  },
  {
    "name": "עין מאהל",
    "lat": 32.7667,
    "lng": 35.3333,
    "time": 60
  },
  {
    "name": "עין נקובא",
    "lat": 31.8167,
    "lng": 35.1,
    "time": 90
  },
  {
    "name": "עין עירון",
    "lat": 32.4333,
    "lng": 35.0333,
    "time": 90
  },
  {
    "name": "עין קינייה",
    "lat": 33.2167,
    "lng": 35.7667,
    "time": 15
  },
  {
    "name": "עין רפא",
    "lat": 31.8167,
    "lng": 35.1167,
    "time": 90
  },
  {
    "name": "עין תמר",
    "lat": 31.1167,
    "lng": 35.3833,
    "time": 60
  },
  {
    "name": "עכו",
    "lat": 32.9281,
    "lng": 35.0828,
    "time": 60
  },
  {
    "name": "עמוקה",
    "lat": 32.9833,
    "lng": 35.4833,
    "time": 30
  },
  {
    "name": "עמינדב",
    "lat": 31.75,
    "lng": 35.1,
    "time": 90
  },
  {
    "name": "עמיעד",
    "lat": 32.9333,
    "lng": 35.5333,
    "time": 30
  },
  {
    "name": "עפולה",
    "lat": 32.6065,
    "lng": 35.2899,
    "time": 60
  },
  {
    "name": "עראבה",
    "lat": 32.85,
    "lng": 35.3333,
    "time": 60
  },
  {
    "name": "ערב אל ערמשה",
    "lat": 33.0667,
    "lng": 35.1333,
    "time": 30
  },
  {
    "name": "ערד",
    "lat": 31.2587,
    "lng": 35.2139,
    "time": 60
  },
  {
    "name": "עתלית",
    "lat": 32.6956,
    "lng": 34.9433,
    "time": 60
  },
  {
    "name": "פארן",
    "lat": 30.2,
    "lng": 35.15,
    "time": 120
  },
  {
    "name": "פוריידיס",
    "lat": 32.6167,
    "lng": 34.95,
    "time": 60
  },
  {
    "name": "פלמחים",
    "lat": 31.8833,
    "lng": 34.6833,
    "time": 60
  },
  {
    "name": "פקיעין",
    "lat": 32.9833,
    "lng": 35.3167,
    "time": 30
  },
  {
    "name": "פרדיס",
    "lat": 32.6333,
    "lng": 34.9667,
    "time": 60
  },
  {
    "name": "פרדס חנה-כרכור",
    "lat": 32.4718,
    "lng": 34.9717,
    "time": 90
  },
  {
    "name": "פתח תקווה",
    "lat": 32.0841,
    "lng": 34.8878,
    "time": 90
  },
  {
    "name": "צופר",
    "lat": 30.0167,
    "lng": 35.1333,
    "time": 120
  },
  {
    "name": "צור הדסה",
    "lat": 31.7167,
    "lng": 35.1167,
    "time": 90
  },
  {
    "name": "צפת",
    "lat": 32.9646,
    "lng": 35.496,
    "time": 30
  },
  {
    "name": "קטורה",
    "lat": 29.9167,
    "lng": 35.05,
    "time": 180
  },
  {
    "name": "קיבוץ יגור",
    "lat": 32.75,
    "lng": 35.1,
    "time": 60
  },
  {
    "name": "קיבוץ מזרע",
    "lat": 32.5833,
    "lng": 35.1833,
    "time": 60
  },
  {
    "name": "קיסריה",
    "lat": 32.5,
    "lng": 34.9,
    "time": 90
  },
  {
    "name": "קלנסווה",
    "lat": 32.2833,
    "lng": 34.9833,
    "time": 90
  },
  {
    "name": "קלע",
    "lat": 32.9167,
    "lng": 35.75,
    "time": 15
  },
  {
    "name": "קפר קאסם",
    "lat": 32.1167,
    "lng": 34.9833,
    "time": 90
  },
  {
    "name": "קצרין",
    "lat": 32.9919,
    "lng": 35.6897,
    "time": 30
  },
  {
    "name": "קריית אונו",
    "lat": 32.0607,
    "lng": 34.8555,
    "time": 90
  },
  {
    "name": "קריית אתא",
    "lat": 32.8,
    "lng": 35.1167,
    "time": 60
  },
  {
    "name": "קריית ביאליק",
    "lat": 32.8302,
    "lng": 35.0876,
    "time": 60
  },
  {
    "name": "קריית גת",
    "lat": 31.6103,
    "lng": 34.7637,
    "time": 60
  },
  {
    "name": "קריית טבעון",
    "lat": 32.7333,
    "lng": 35.1333,
    "time": 60
  },
  {
    "name": "קריית ים",
    "lat": 32.855,
    "lng": 35.0681,
    "time": 60
  },
  {
    "name": "קריית מוצקין",
    "lat": 32.8358,
    "lng": 35.1,
    "time": 60
  },
  {
    "name": "קריית מלאכי",
    "lat": 31.7281,
    "lng": 34.7378,
    "time": 60
  },
  {
    "name": "קריית ענבים",
    "lat": 31.8167,
    "lng": 35.1,
    "time": 90
  },
  {
    "name": "קריית שמונה",
    "lat": 33.2074,
    "lng": 35.5693,
    "time": 15
  },
  {
    "name": "ראמה",
    "lat": 32.9333,
    "lng": 35.3667,
    "time": 60
  },
  {
    "name": "ראש העין",
    "lat": 32.0955,
    "lng": 34.9555,
    "time": 90
  },
  {
    "name": "ראש פינה",
    "lat": 32.9667,
    "lng": 35.55,
    "time": 30
  },
  {
    "name": "ראשון לציון",
    "lat": 31.973,
    "lng": 34.7925,
    "time": 90
  },
  {
    "name": "רהט",
    "lat": 31.394,
    "lng": 34.7545,
    "time": 60
  },
  {
    "name": "רוחמה",
    "lat": 31.4,
    "lng": 34.6667,
    "time": 25
  },
  {
    "name": "רועי",
    "lat": 32.4167,
    "lng": 35.5167,
    "time": 30
  },
  {
    "name": "רחובות",
    "lat": 31.8928,
    "lng": 34.8113,
    "time": 90
  },
  {
    "name": "ריינה",
    "lat": 32.7167,
    "lng": 35.3167,
    "time": 60
  },
  {
    "name": "רכסים",
    "lat": 32.7667,
    "lng": 35.1167,
    "time": 60
  },
  {
    "name": "רמלה",
    "lat": 31.9288,
    "lng": 34.8737,
    "time": 90
  },
  {
    "name": "רמת גן",
    "lat": 32.068,
    "lng": 34.824,
    "time": 90
  },
  {
    "name": "רמת השרון",
    "lat": 32.1467,
    "lng": 34.836,
    "time": 90
  },
  {
    "name": "רמת מגשימים",
    "lat": 33.0,
    "lng": 35.75,
    "time": 15
  },
  {
    "name": "רעים",
    "lat": 31.4167,
    "lng": 34.4833,
    "time": 15
  },
  {
    "name": "רעננה",
    "lat": 32.184,
    "lng": 34.8706,
    "time": 90
  },
  {
    "name": "שאר ישוב",
    "lat": 33.2,
    "lng": 35.6167,
    "time": 15
  },
  {
    "name": "שגב שלום",
    "lat": 31.1667,
    "lng": 34.95,
    "time": 60
  },
  {
    "name": "שדה אביחיל",
    "lat": 32.35,
    "lng": 34.8833,
    "time": 90
  },
  {
    "name": "שדה אליהו",
    "lat": 32.4833,
    "lng": 35.5333,
    "time": 30
  },
  {
    "name": "שדה אלעזר",
    "lat": 33.0333,
    "lng": 35.7333,
    "time": 15
  },
  {
    "name": "שדמות מחולה",
    "lat": 32.3833,
    "lng": 35.5,
    "time": 30
  },
  {
    "name": "שדרות",
    "lat": 31.5237,
    "lng": 34.5964,
    "time": 15
  },
  {
    "name": "שובל",
    "lat": 31.3,
    "lng": 34.7167,
    "time": 25
  },
  {
    "name": "שוהם",
    "lat": 31.9961,
    "lng": 34.9439,
    "time": 90
  },
  {
    "name": "שחרות",
    "lat": 29.75,
    "lng": 35.0167,
    "time": 180
  },
  {
    "name": "שיזפון",
    "lat": 29.9833,
    "lng": 35.0833,
    "time": 180
  },
  {
    "name": "שלומי",
    "lat": 33.0833,
    "lng": 35.15,
    "time": 15
  },
  {
    "name": "שמיר",
    "lat": 33.2167,
    "lng": 35.5833,
    "time": 15
  },
  {
    "name": "שניר",
    "lat": 33.2333,
    "lng": 35.6333,
    "time": 15
  },
  {
    "name": "שעב",
    "lat": 32.85,
    "lng": 35.2833,
    "time": 60
  },
  {
    "name": "שעל",
    "lat": 33.0,
    "lng": 35.8167,
    "time": 15
  },
  {
    "name": "שער הנגב",
    "lat": 31.5,
    "lng": 34.55,
    "time": 15
  },
  {
    "name": "שפרעם",
    "lat": 32.8,
    "lng": 35.1667,
    "time": 60
  },
  {
    "name": "תל אביב-יפו",
    "lat": 32.0853,
    "lng": 34.7818,
    "time": 90
  },
  {
    "name": "תל מונד",
    "lat": 32.2667,
    "lng": 34.9167,
    "time": 90
  },
  {
    "name": "תל ערד",
    "lat": 31.25,
    "lng": 35.1167,
    "time": 60
  },
  {
    "name": "תל שבע",
    "lat": 31.4069,
    "lng": 34.7981,
    "time": 60
  },
  {
    "name": "תלמי אליהו",
    "lat": 31.2833,
    "lng": 34.4833,
    "time": 15
  },
  {
    "name": "תקומה",
    "lat": 31.3667,
    "lng": 34.5333,
    "time": 15
  }
]